Facility Id,FRS Id,Facility Name,City,State,Zip Code,Address,County,Primary NAICS Code,Industry Type (subparts),Industry Type (sectors),Total reported direct emissions,CO2 emissions (non-biogenic),Methane (CH4) emissions,Latitude,Longitude
1001444,110000522113,AES Alamitos,LONG BEACH,CA,90803,690 N STUDEBAKER ROAD,LOS ANGELES COUNTY,221112,"C,D",Power Plants,1512393.796,1510858.3,700.5,33.77,-118.10
1001447,110002921713,AES Huntington Beach,HUNTINGTON BEACH,CA,92646,21730 NEWLAND ST,ORANGE COUNTY,221112,"C,D",Power Plants,1501324.036,1499799.5,695.5,33.64,-117.98
1001450,110014322170,AES Redondo Beach,REDONDO BEACH,CA,90277,1100 N HARBOR DRIVE,LOS ANGELES COUNTY,221112,D,Power Plants,192627.088,192432,89,33.85,-118.40
1006430,110070835034,"AIR LIQUID LARGE INDUSTRIES US, LP",EL SEGUNDO,CA,90245,324 W EL SEGUNDO BLVD,LOS ANGELES COUNTY,325120,P,Chemicals,532253.6,532253.6,,33.91,-118.40
1003748,110041623641,AIR LIQUIDE LARGE INDUSTRIES US LP - RODEO HYDROGEN PLANT,RODEO,CA,94572,1391 SAN PABLO AVE,CONTRA COSTA COUNTY,325120,P,Chemicals,815291.7,815291.7,,38.05,-122.26
1002121,110000483227,AIR PRODUCTS & CHEMICALS INC MARTINEZ WATERFRONT ROAD,MARTINEZ,CA,94553,110 WATERFRONT RD,CONTRA COSTA COUNTY,325120,P,Chemicals,664568.2,664568.2,,38.03,-122.08
1002122,110071160496,"AIR PRODUCTS & CHEMICALS, INC, Tesoro Martinez",MARTINEZ,CA,94553,,CONTRA COSTA COUNTY,325120,P,Chemicals,0,0,,38.03,-122.07
1002123,110000750358,AIR PRODUCTS AND CHEMICALS INCORPORATED,SACRAMENTO,CA,95826,5025 83RD STREET,SACRAMENTO COUNTY,325120,P,Chemicals,47413.7,47413.7,,38.53,-121.40
1002257,110002305443,AIR PRODUCTS CARSON HYDROGEN PLANT,CARSON,CA,90810,23300 SOUTH ALAMEDA STREET,LOS ANGELES COUNTY,325120,P,Chemicals,711592.7,711592.7,,33.81,-118.23
1002435,110000476084,AIR PRODUCTS WILMINGTON HYDROGEN PLANT,WILMINGTON,CA,90744,700 HENRY FORD AVENUE,LOS ANGELES COUNTY,325120,P,Chemicals,688241.452,687413,232.75,33.78,-118.24
1004335,110043796942,ALL PURPOSE LANDFILL,SANTA CLARA,CA,95050,5401 Lafayette Street,SANTA CLARA COUNTY,562212,HH,Waste,47082.25,,47082.25,37.41,-121.97
1006197,110001167745,ALLIED IMPERIAL LANDFILL,IMPERIAL,CA,92251,104 EAST ROBINSON ROAD,IMPERIAL COUNTY,562212,HH,Waste,26325.5,,26325.5,32.85,-115.48
1004417,110013667488,AMERICAN AVENUE LANDFILL,KERMAN,CA,93630,18950 W AMERICAN AVENUE,FRESNO COUNTY,562212,"C,HH",Waste,110383.5,0,110383.5,36.67,-120.14
1007839,110002690730,ANDERSON LANDFILL,ANDERSON,CA,96007,18703 CAMBRIDGE ROAD,SHASTA COUNTY,562212,HH,Waste,37709.5,,37709.5,40.42,-122.36
1002867,110017431322,ANHEUSER BUSCH INC. - L.A. BREWERY,VAN NUYS,CA,91406,15800 ROSCOE BOULEVARD,LOS ANGELES COUNTY,312120,C,Other,31267.998,31207.2,23.25,34.22,-118.48
1007710,110038067472,ANTELOPE VALLEY RECYCLING AND DISPOSAL FACILITY,PALMDALE,CA,93551,1200 WEST CITY RANCH ROAD,LOS ANGELES COUNTY,562212,"C,HH",Waste,51915.25,112,51803.25,34.57,-118.15
1003328,110043803630,AVENAL REGIONAL LANDFILL,AVENAL,CA,93204,1200 Skyline Blvd,KINGS COUNTY,562212,HH,Waste,20199.75,,20199.75,36.01,-120.12
1007682,110001150227,AZUSA LAND RECLAMATION CO INC INERT LF,AZUSA,CA,91702,1211 W GLADSTONE ST,LOS ANGELES COUNTY,562212,"C,HH",Waste,116148.5,181,115967.5,34.11,-117.93
1012089,,"Aemetis Advanced Fuels Keyes, Inc.",Ceres,CA,95307,4209 Jessup Road,STANISLAUS COUNTY,325193,"C,PP","Other,Suppliers of CO2",74282.456,74192.2,39,37.55,-120.92
1002316,110043804425,Aera Energy 25 Hill,Maricopa,CA,93252,29235 Highway 33,KERN COUNTY,211120,C,Petroleum and Natural Gas Systems,73893.22,73816.5,35,35.09,-119.41
1002156,110066768108,Aera Energy Alberta Finley Shale,Fellows,CA,93224,25401 Highway 33,KERN COUNTY,211120,C,Petroleum and Natural Gas Systems,105906.152,105797.1,49.75,35.23,-119.58
1006844,110070081958,Aera Energy Anderson Fitzgerald,McKittrick,CA,93251,59231 Main Camp Road,KERN COUNTY,211120,C,Petroleum and Natural Gas Systems,223856.156,223624.9,105.5,35.30,-119.74
1006845,110043799752,Aera Energy Belridge,McKittrick,CA,93251,59231 Main Camp Road,KERN COUNTY,211120,C,Petroleum and Natural Gas Systems,1459910.352,1458403.9,687.25,35.45,-119.72
1003702,110043802757,Aera Energy Buena Fe,Maricopa,CA,93252,29235 Highway 33,KERN COUNTY,211120,C,Petroleum and Natural Gas Systems,10345.812,10335.4,4.75,35.09,-119.41
1002315,110043797308,Aera Energy Calso,McKittrick,CA,93251,59231 Main Camp Road,KERN COUNTY,211120,C,Petroleum and Natural Gas Systems,42868.088,42823.7,20.25,35.30,-119.74
1006405,110070131883,Aera Energy Coalinga,Coalinga,CA,93210,29010 Shell Road,FRESNO COUNTY,211120,C,Petroleum and Natural Gas Systems,167456.62,167284,78.75,36.24,-120.32
1012480,110070082316,Aera Energy Lockwood,Maricopa,CA,93525,29235 Highway 33,KERN COUNTY,211120,C,Petroleum and Natural Gas Systems,7844.42,7836.2,3.75,35.09,-119.41
1005790,110043793543,Aera Energy Lost Hills,McKittrick,CA,93251,59231 Main Camp Road,KERN COUNTY,211120,C,Petroleum and Natural Gas Systems,130841.108,130706.3,61.5,35.30,-119.74
1006914,110043793552,Aera Energy MOCO,Maricopa,CA,93252,29235 Highway 33,KERN COUNTY,211120,C,Petroleum and Natural Gas Systems,127122.172,126991.2,59.75,35.09,-119.41
1005635,110043802757,Aera Energy Metson,Maricopa,CA,93252,29235 Highway 33,KERN COUNTY,211120,C,Petroleum and Natural Gas Systems,22711.464,22687.9,10.75,35.09,-119.41
1012475,110070131883,Aera Energy Penn Zier,Coalinga,CA,93210,29010 Shell Road,FRESNO COUNTY,211120,C,Petroleum and Natural Gas Systems,31542.332,31510,14.75,36.26,-120.44
1006846,110001175530,Aera Energy San Ardo,San Ardo,CA,93450,66893 Sargent Road,MONTEREY COUNTY,211120,C,Petroleum and Natural Gas Systems,228775.488,228539.3,107.75,35.95,-120.86
1009944,110066768108,Aera Energy Wier Gore Maxwell,Fellows,CA,93224,25401 Highway 33,KERN COUNTY,211120,C,Petroleum and Natural Gas Systems,57457.884,57398.7,27,35.23,-119.58
1000423,110038082302,Agua Mansa Power,COLTON,CA,92324,2040 AGUA MANSA ROAD,SAN BERNARDINO COUNTY,221112,D,Power Plants,7742.672,7735,3.5,34.04,-117.36
1014323,,Air Products West Coast Hydrogen - HP-1,Martinez,CA,94553,3485 Pacheco Blvd.,CONTRA COSTA COUNTY,325120,P,Chemicals,473077.6,473077.6,,38.01,-122.11
1014324,,Air Products West coast Hydrogen - HP-2,Martinez,CA,94553,1915 Shell Avenue,CONTRA COSTA COUNTY,325120,P,Chemicals,364780.5,364780.5,,38.02,-122.12
1005044,110043805790,"Algonquin Power Sanger, LLC",Sanger,CA,93657,1125 Muscat Avenue,FRESNO COUNTY,221112,"C,D",Power Plants,66763.256,66696.4,30.5,36.69,-119.55
1007315,110021087517,Almond Power Plant,MODESTO,CA,95358,4500 CROWS LANDING ROAD,STANISLAUS COUNTY,221112,D,Power Plants,228459.504,228227.7,105.75,37.57,-120.99
1003689,110069522662,Alon Bakersfield Refining,Bakersfield,CA,93308,6451 Rosedale Highway,KERN COUNTY,324110,C,Petroleum and Natural Gas Systems,17355.484,17337.4,8.25,35.38,-119.07
1001625,110000508086,AltaGas Ripon Energy Inc.,Ripon,CA,95366,944 South Stockton Ave.,SAN JOAQUIN COUNTY,221112,C,Power Plants,2388.792,2386.6,1,37.73,-121.12
1007699,110060864462,Altamont Landfill & Resource Recovery Facility,Livermore,CA,94551,10840 Altamont Pass Road,ALAMEDA COUNTY,562212,"C,HH",Waste,153518.76,506.1,152887.5,37.72,-121.68
1004465,110071160590,American Canyon Landfill,American Canyon,CA,94503,,NAPA COUNTY,562212,HH,Waste,41859.75,,41859.75,38.18,-122.28
1012548,110001158167,Arcosa Lightweight - Frazier Park,Frazier Park,CA,93225,17410 E Lockwood Valley Rd,VENTURA COUNTY,212325,C,Other,20957.372,20936,9.75,34.77,-119.04
1000005,110000482022,Ardagh Glass Inc. (Madera),MADERA,CA,93637,24441 AVENUE 12 & ROAD 24 1/2,MADERA COUNTY,327213,"C,N",Minerals,78060.732,78001,27.25,36.92,-120.10
1005872,110008262851,"B BRAUN MEDICAL, INC",IRVINE,CA,92614,2525 MCGAW AVE,ORANGE COUNTY,325412,C,Chemicals,54743.644,54687.2,25.75,33.69,-117.84
1002728,110028037363,BADGER CREEK LIMITED,BAKERSFIELD,CA,93308,34759 LENCIONI AVE,KERN COUNTY,221112,D,Power Plants,7686.672,7679,3.5,35.45,-119.09
1000046,110017973335,BADLANDS SANITARY LANDFILL,MORENO VALLEY,CA,92555,31125 IRONWOOD AVENUE,RIVERSIDE COUNTY,562212,HH,Waste,88809.25,,88809.25,33.95,-117.12
1002896,110063276119,BAKERSFIELD METROPOLITAN SANITARY LANDFILL,Edison,CA,93220,2951 Neumarkel Road,KERN COUNTY,562212,HH,Waste,48483.5,,48483.5,35.42,-118.71
1004406,110043810944,BARSTOW SANITARY LANDFILL,BARSTOW,CA,92311,"32553 BARSTOW ROAD, 5 MILES S OF BARSTOW",SAN BERNARDINO COUNTY,562212,"C,HH",Waste,43847.3,37.8,43809.5,34.84,-117.02
1006139,110028037363,BEAR MOUNTAIN LIMITED,BAKERSFIELD,CA,93308,34759 LENCIONI AVE,KERN COUNTY,221112,D,Power Plants,25146.556,25120.8,11.75,35.45,-119.09
1011449,110000782840,BKK Corporation,West Covina,CA,91792,2210 S. Azusa Ave.,LOS ANGELES COUNTY,562212,HH,Waste,293641.5,,293641.5,34.04,-117.90
1007951,110063276146,BRADLEY LANDFILL & RECYCLING CENTER,SUN VALLEY,CA,91352,9227 TUJUNGA AVENUE,LOS ANGELES COUNTY,562212,"C,HH",Waste,16119.596,931,15188,34.24,-118.38
1006221,110017973291,BUENA VISTA DRIVE SANITARY LANDFILL,WATSONVILLE,CA,95076,150 ROUNTREE LANE,SANTA CRUZ COUNTY,562212,HH,Waste,24957.25,,24957.25,33.58,-118.12
1006218,110013967047,Billy Wright Landfill,Los Banos,CA,93522,17173 Billy Wright Road,MERCED COUNTY,562212,HH,Waste,40426.75,,40426.75,36.92,-121.82
1001405,110066419209,Blythe Energy,BLYTHE,CA,92225,385 N. Buck Blvd.,RIVERSIDE COUNTY,221112,D,Power Plants,884770.62,883871.9,410,37.04,-120.97
1003599,110046229568,CALABASAS SANITARY LANDFILL,AGOURA (UNINCORP. LA COUNTY),CA,91301,5300 LOST HILLS ROAD,LOS ANGELES COUNTY,562212,"C,HH",Waste,56729.872,0.3,56636,33.62,-114.69
1005658,110000482166,CALIFORNIA DAIRIES INC FRESNO,FRESNO,CA,93706,755 F STREET,FRESNO COUNTY,311514,C,Other,36048.264,36011,17,34.14,-118.71
1005657,110000481489,CALIFORNIA DAIRIES INC TIPTON,TIPTON,CA,93272,11894 AVENUE 120,TULARE COUNTY,311514,C,Other,45674.128,45627,21.5,36.73,-119.79
1006836,110000529303,CALIFORNIA DAIRIES INC TURLOCK,TURLOCK,CA,95380,475 SOUTH TEGNER ROAD,STANISLAUS COUNTY,311514,C,Other,38059.656,38020.2,18,36.01,-119.31
1005659,110001193814,CALIFORNIA DAIRIES INC VISALIA,VISALIA,CA,93291,2000 NORTH PLAZA DRIVE,TULARE COUNTY,311514,C,Other,67468.996,67399.4,31.75,37.49,-120.89
1006761,110063857376,CALIFORNIA STEEL INDUSTRIES INC,FONTANA,CA,92335,14000 SAN BERNARDINO AVE.,SAN BERNARDINO COUNTY,331221,C,Metals,167893.668,167720.5,79,36.34,-119.39
1004205,110041038542,"CAMPBELL SOUP SUPPLY COMPANY, LLC DBA DIXON CANNING CORP.",DIXON,CA,95620,8380 PEDRICK ROAD,SOLANO COUNTY,311421,C,Other,39800.2,39759.1,18.75,34.08,-117.50
1005150,110000475904,CARLTON FORGE WORKS,PARAMOUNT,CA,90723,7743 E. ADAMS ST.,LOS ANGELES COUNTY,332112,C,Other,25946.652,25919.8,12.25,38.48,-121.80
1002308,110070318467,CEMEX Construction Materials Pacific LLC,Apple Valley,CA,92308,25220 Black Mountain Quarry Road,SAN BERNARDINO COUNTY,327310,"C,H",Minerals,2062274.206,2057783,1266.25,33.89,-118.16
1007055,110000481942,CERTAINTEED CORPORATION,CHOWCHILLA,CA,93610,17775 AVENUE 23 1/2,MADERA COUNTY,327993,"C,N",Minerals,60953.196,60897.3,25.5,34.40,-117.15
1002759,110028037363,CHALK CLIFF COGEN,BAKERSFIELD,CA,93308,34759 LENCIONI AVE,KERN COUNTY,221112,C,Power Plants,8694.568,8685.8,4,37.09,-120.23
1003610,110020506460,CHEVRON PRODS.CO. RICHMOND REFY,RICHMOND,CA,94801,841 CHEVRON WAY,CONTRA COSTA COUNTY,324110,"C,P,Y","Chemicals,Refineries",4335143.406,4322108.5,5518.75,35.45,-119.09
1007978,110002899908,"CHEVRON PRODUCTS, EL SEGUNDO REFINERY",EL SEGUNDO,CA,90245,324 W EL SEGUNDO BLVD,LOS ANGELES COUNTY,324110,"C,P,PP,Y","Chemicals,Refineries,Suppliers of CO2",3430789.864,3408654,16058.75,37.94,-122.40
1002992,110001154660,CHIQUITA CANYON SLF,CASTAIC,CA,91384,29201 HENRY MAYO DRIVE,LOS ANGELES COUNTY,562212,HH,Waste,163207,,163207,33.91,-118.41
1006812,110013828821,CHOWCHILLA II,CHOWCHILLA,CA,93610,16457 AVENUE 24 1/2,MADERA COUNTY,221112,C,Power Plants,24263.308,24238.1,11.5,34.43,-118.65
1001667,110043811417,CI Power Cogeneration Plant,Camarillo,CA,93012,1947 West Potrero Road,VENTURA COUNTY,611310,C,Other,6782.524,6775.4,3.25,37.11,-120.28
1004868,110017397137,CITY OF LOMPOC SANITARY LANDFILL,LOMPOC,CA,93436,700 SOUTH AVALON ROAD,SANTA BARBARA COUNTY,562212,HH,Waste,18679.5,,18679.5,34.16,-118.99
1004364,110012694218,CITY OF WATSONVILLE LANDFILL,WATSONVILLE,CA,95076,730 SAN ANDREAS ROAD,SANTA CRUZ COUNTY,562212,HH,Waste,815.75,,815.75,34.63,-120.48
1006322,110001173989,COLD CANYON LANDFILL SOLID WASTE DS,SAN LUIS OBISPO,CA,93401,2268 CARPENTER CANYON ROAD,SAN LUIS OBISPO COUNTY,562212,HH,Waste,32829,,32829,36.91,-121.83
1004691,110012694557,COLTON SANITARY LANDFILL,COLTON,CA,92324,850 TROPICANA RANCH ROAD,SAN BERNARDINO COUNTY,562212,HH,Waste,21143.75,,21143.75,35.19,-120.60
1002104,110061008804,COYOTE CANYON SANITARY LANDFILL,Newport Beach,CA,92675,20661 Newport Coast Drive,ORANGE COUNTY,562212,HH,Waste,40041.25,,40041.25,34.05,-117.34
1001629,110070450550,CROCKETT COGENERATION PLANT,CROCKETT,CA,94525,550 LORING AVENUE,CONTRA COSTA COUNTY,221112,C,Power Plants,650693.4,650022.1,306.25,33.62,-117.83
1011772,110000786249,"CSU, San Jose State University",San Jose,CA,95192,1 Washington Square,SANTA CLARA COUNTY,611310,C,Other,25961.852,25935,12.25,38.06,-122.21
1007794,110000481443,"CWMI, KHF (MSW LANDFILL B-19)",KETTLEMAN CITY,CA,93239,35251 OLD SKYLINE RD.,KINGS COUNTY,562212,"C,HH",Waste,30230.2,1391.2,28839,37.33,-121.88
1005321,110002408305,CalNRG  Santa Clara Valley Gas Plant,PIRU,CA,93040,3824 GUIBERSON ROAD-GAS PL,VENTURA COUNTY,211130,"C,NN-FRAC,W-PROC","Natural Gas and Natural Gas Liquids Suppliers,Petroleum and Natural Gas Systems",20429.784,17965.7,2454.25,35.96,-120.01
1005164,110065171502,"California Resources Elk Hills, LLC - Gas Processing and Power Generation",TUPMAN,CA,93276,28590 Highway 119,KERN COUNTY,211130,"C,D,NN-FRAC,W-PROC","Natural Gas and Natural Gas Liquids Suppliers,Petroleum and Natural Gas Systems,Power Plants",1473037.4,1466886.4,5406,34.39,-118.80
1006842,110063527964,CalPortland Company Mojave Plant,Mojave,CA,93501,9350 Oak Creek Road,LAPORTE COUNTY,327310,"C,H",Minerals,1068989.018,1066446.6,921,35.24,-119.36
1007927,110001200922,CalPortland Company Oro Grande Plant,Oro Grande,CA,92368,19409 National Trails Highway,SAN BERNARDINO COUNTY,327310,"C,H",Minerals,1423755.26,1419563.6,1533.5,41.63,-86.71
1002105,110066701251,California Institute of Technology,Pasadena,CA,91125,1200 E. California,LOS ANGELES COUNTY,611310,C,Other,59469.324,59407.4,28.25,34.60,-117.34
1010207,110055519826,California Street Landfill,City of Redlands,CA,92373,2151 Nevada Street,SAN BERNARDINO COUNTY,562212,HH,Waste,7000,,7000,34.13,-118.13
1000453,110001151324,"Calpine Gilroy Cogen, LP",GILROY,CA,95020,1400 PACHECO PASS HWY,SANTA CLARA COUNTY,221112,"C,D",Power Plants,50210.7,50155.9,25,34.09,-117.22
1000597,110000529376,"Calpine King City Cogen, LLC",King City,CA,93930,750 Metz Road,MONTEREY COUNTY,221112,C,Power Plants,40326.048,40284.4,19,37.00,-121.54
1001320,110001188116,Calpine Sutter Energy Center,YUBA CITY,CA,95993,5029 SOUTH TOWNSHIP ROAD,SUTTER COUNTY,221112,D,Power Plants,734286.368,733551.5,335.25,36.23,-121.13
1001130,110071162291,Campbell Power Plant,SACRAMENTO,CA,95824,3215 47th Avenue,SACRAMENTO COUNTY,221112,"C,D",Power Plants,281891.856,281605.8,130.5,39.05,-121.69
1000566,110040486364,Canyon Power Plant,"Anaheim, CA",CA,92806,3071 E. Miraloma Avenue,ORANGE COUNTY,221112,D,Power Plants,38659.808,38620.9,17.75,38.51,-121.47
1013360,110070397897,Carlsbad Energy Center Project,Carlsbad,CA,92008,4950 Avenida Encinas,SAN DIEGO COUNTY,221112,D,Power Plants,241354.604,241109.1,112,33.86,-117.86
1001127,110066618645,Carson Power Plant,ELK GROVE,CA,95758,8580 Laguna Station Rd,SACRAMENTO COUNTY,221112,"C,D",Power Plants,118108.848,117974.8,59.25,33.14,-117.33
1007015,110066177130,Chateau Fresno Landfill,Fresno,CA,93706,8662 West Muscat,FRESNO COUNTY,562212,HH,Waste,1949.5,,1949.5,38.45,-121.46
1013905,110012694058,Chicago Grade Landfill,Templeton,CA,93465,2290 Homestead Rd,SAN LUIS OBISPO COUNTY,562212,"C,HH",Waste,16836.75,24,16812.75,36.69,-119.95
1011669,110065118492,City of Clovis Landfill,Clovis,CA,93612,15679 Auberry Road,FRESNO COUNTY,562212,HH,Waste,17272.5,,17272.5,35.52,-120.64
1009930,110000500912,"Clean Harbors Buttonwillow, LLC.",Buttonwillow,CA,93206,2500 West Lokern Road,KERN COUNTY,562212,TT,Waste,26436,,26436,36.94,-119.69
1013696,110041035368,Clover Flat Landfill,Calistoga,CA,94515,4380 Silverado Trail,NAPA COUNTY,562212,"C,HH",Waste,56401.372,,56389.75,35.40,-119.61
1006445,110002408608,ConAgra Foods Inc.,Oakdale,CA,95361,554 S. Yosemite Ave.,STANISLAUS COUNTY,311421,C,Other,73667.772,73591.6,34.75,38.58,-122.53
1007805,110000602544,Corteva agriscience - Pittsburg Operations,PITTSBURG,CA,94565,901 LOVERIDGE ROAD,CONTRA COSTA COUNTY,325199,C,Chemicals,33911.972,33876.9,16,37.76,-120.84
1000323,110024286075,Cosumnes Power Plant,HERALD,CA,95638,14295A Clay East Road,SACRAMENTO COUNTY,221112,D,Power Plants,1511019.4,1509389.7,728.25,38.02,-121.86
1012110,,County of Orange - CUF,Santa Ana,CA,92703,525 N. Flower Street,ORANGE COUNTY,921190,C,Other,31320.032,31287.7,14.75,38.34,-121.12
1003200,110000514676,Covanta Stanislaus Inc.,CROWS LANDING,CA,95313,4040 FINK ROAD,STANISLAUS COUNTY,562213,C,Waste,101808.216,96281.5,2154.25,33.75,-117.86
1007736,110043970370,Cummings Road Landfill,Eureka,CA,95503,5775 Cummings Road,HUMBOLDT COUNTY,562212,HH,Waste,12493,,12493,37.39,-121.14
1006447,110000481416,DEL MONTE FOODS PLANT NUMBER 24,HANFORD,CA,93230,10652 JACKSON AVE.,KINGS COUNTY,311421,C,Other,29594.588,29563.9,14,40.76,-124.09
1006861,110000474353,DEMENNO KERDOON,COMPTON,CA,90222,2000 N. ALAMEDA ST.,LOS ANGELES COUNTY,324199,C,Petroleum and Natural Gas Systems,24730.856,24705.1,11.75,36.25,-119.65
1007651,110001190997,DICALITE MINERALS LLC,BURNEY,CA,96013,36994 SUMMIT LAKE RD,SHASTA COUNTY,212399,C,Other,29722.67,29620.9,30.25,33.91,-118.22
1002820,110000527127,DOUBLE C LIMITED,BAKERSFIELD,CA,93308,10245 OILFIELD ROAD,KERN COUNTY,221112,C,Power Plants,10077.664,10067.8,4.5,41.03,-121.68
1001263,110002936538,"Delta Energy Center, LLC",PITTSBURG,CA,94565,1200 ARCY LANE,CONTRA COSTA COUNTY,221112,D,Power Plants,1717242.42,1715453.2,816.25,35.49,-119.04
1000310,110058308576,Donald Von Raesfeld,SANTA CLARA,CA,95054,850 DUANE AVE,SANTA CLARA COUNTY,221112,D,Power Plants,340474.488,340128.7,157.75,38.02,-121.84
1005648,110000482317,E & J GALLO WINERY,FRESNO,CA,93727,5610 E. OLIVE AVE.,FRESNO COUNTY,312130,C,Other,27563.95,27525.6,16,37.38,-121.95
1005565,110000514587,E.F. Oxnard LLC,Oxnard,CA,93030,550 Diaz Avenue,VENTURA COUNTY,221112,C,Power Plants,1187.496,1186.4,0.5,36.76,-119.70
1007539,110000476208,ECO SERVICES DOMINGUEZ,CARSON,CA,90810,20720 SOUTH WILMINGTON AVENUE,LOS ANGELES COUNTY,325180,C,Chemicals,35488.416,35451.7,16.75,34.20,-119.17
1007693,110005982339,EL SOBRANTE LANDFILL,CORONA,CA,92883,10910 DAWSON CANYON ROAD,RIVERSIDE COUNTY,562212,"C,HH",Waste,119081.15,236.9,118844.25,33.84,-118.23
1003978,110002630065,ENERGY CENTER SAN FRANCISCO,SAN FRANCISCO,CA,94103,460 JESSIE ST,SAN FRANCISCO COUNTY,221112,C,Power Plants,53565.248,53509.9,25.25,33.78,-117.47
1011676,110017966218,Eastlake Sanitary Landfill,Clearlake,CA,95422,16015 Davis Ave,LAKE COUNTY,562212,HH,Waste,10852.75,,10852.75,37.78,-122.41
1001454,110002672484,El Centro,EL CENTRO,CA,92243,485 E VILLA AVE,IMPERIAL COUNTY,221112,D,Power Plants,453298.62,452838.3,210,38.95,-122.61
1000431,110000520213,El Segundo,EL SEGUNDO,CA,90245,301 VISTA DEL MAR,LOS ANGELES COUNTY,221112,D,Power Plants,97234.34,97135.7,45,32.80,-115.54
1000074,110041513109,"Escondido Energy Center, LLC",ESCONDIDO,CA,92029,1968 DON LEE PLACE,SAN DIEGO COUNTY,221112,D,Power Plants,4757.194,4734.9,6.5,33.91,-118.43
1003814,110012694281,FINK ROAD LANDFILL,CROWS LANDING,CA,95313,4000 FINK ROAD,STANISLAUS COUNTY,562212,HH,Waste,34100.5,,34100.5,33.13,-117.12
1004010,110000610116,FORWARD LANDFILL,MANTECA,CA,95336,9999 SOUTH AUSTIN ROAD,SAN JOAQUIN COUNTY,562212,HH,Waste,92908,,92908,37.40,-121.14
1002205,110000485145,FOSTER FARMS LIVINGSTON COMPLEX,LIVINGSTON,CA,95334,843 DAVIS STREET,MERCED COUNTY,311615,C,Other,53140.7,53085.9,25,37.87,-121.18
1003202,110038017703,Fairmead Solid Waste Disposal Site,CHOWCHILLA,CA,93610,21739 ROAD 19,MADERA COUNTY,562212,HH,Waste,70853.5,,70853.5,37.39,-120.73
1000279,110015980385,Feather River Energy Center,YUBA CITY,CA,95993,202 BURNS DRIVE,SUTTER COUNTY,221112,D,Power Plants,51140.164,51089.2,23.25,37.07,-120.20
1002107,110017973237,Frank R. Bowerman Landfill,IRVINE,CA,92602,11002 BEE CANYON ACCESS RD,ORANGE COUNTY,562212,HH,Waste,336677.75,,336677.75,39.11,-121.61
1013489,110002148104,Frito Lay Modesto,Modesto,CA,95357,600 Garner Rd,STANISLAUS COUNTY,311919,C,Other,26138.152,26111.3,12.25,33.72,-117.70
1002394,110070279343,Frito-Lay COGEN PLANT,BAKERSFIELD,CA,93314,28801 HIGHWAY 58,KERN COUNTY,311919,C,Other,50341.612,50290.1,23.5,37.63,-120.92
1001718,110000485270,GALLO GLASS COMPANY,MODESTO,CA,95354,605 S. SANTA CRUZ AVE.,STANISLAUS COUNTY,327213,"C,N",Minerals,172154.456,172032.8,55.5,35.40,-119.32
1003813,110066291505,GEER ROAD LANDFILL,MODESTO,CA,95351,750 GEER ROAD,STANISLAUS COUNTY,562212,HH,Waste,12158.75,,12158.75,37.63,-120.97
1003665,110000482503,GENENTECH INCORPORATED,SOUTH SAN FRANCISCO,CA,94080,1 DNA WAY,SAN MATEO COUNTY,325414,C,Chemicals,31048.284,31016.5,14.5,37.63,-120.85
1007904,110071161729,GUARDIAN INDUSTRIES LLC - KINGSBURG,KINGSBURG,CA,93631,11535 EAST MOUNTAINVIEW AVENUE,TULARE COUNTY,327211,"C,N",Minerals,122312.486,122226.7,39,37.66,-122.38
1011090,110002063748,Georgia-Pacific Gypsum LLC,Antioch,CA,94509,801 Minaker Drive,CONTRA COSTA COUNTY,327420,C,Minerals,37214.76,37176.4,17.5,36.49,-119.53
1000300,110001151324,"Gilroy Energy Center, LLC",GILROY,CA,95020,1400 PACHECO PASS HWY,SANTA CLARA COUNTY,221112,D,Power Plants,13862.648,13848.4,6.5,38.01,-121.79
1000122,110000529376,"Gilroy Energy Center, LLC for King City",KING CITY,CA,93930,51 DON BATES WAY,MONTEREY COUNTY,221112,D,Power Plants,6479.128,6473.1,2.75,37.00,-121.54
1010977,110057067944,"Glass House Camarillo Cultivation, LLC",Camarillo,CA,93012,645 W. Laguna Rd.,VENTURA COUNTY,111419,C,Other,36737.512,36699.7,17.25,36.23,-121.13
1001459,110071161556,Glenarm,PASADENA,CA,91105,43 EAST STATE ST,LOS ANGELES COUNTY,221112,"C,D",Power Plants,11907.556,11895.5,5.5,34.18,-119.07
1011213,110001187689,Gold Bond - LGB Plant,Long Beach,CA,90813,1850 Pier B Street,LOS ANGELES COUNTY,327420,C,Minerals,37113.86,37075.5,17.5,34.13,-118.15
1012977,110002427810,Gold Bond - RIC Plant,Richmond,CA,94804,1040 Canal Boulevard,CONTRA COSTA COUNTY,327420,C,Minerals,26681.8,26654.4,12.5,33.78,-118.22
1006628,110013829330,Grayson Power Plant,GLENDALE,CA,91201,800 AIR WAY,LOS ANGELES COUNTY,221112,"C,D",Power Plants,111233.936,111120.5,51.75,37.92,-122.37
1000596,110000524969,Greenleaf Energy Unit 2 LLC,Yuba City,CA,95993,875 North Walton Ave,SUTTER COUNTY,221112,C,Power Plants,55670.14,55612.6,26.25,34.16,-118.28
1007837,110006533037,Guadalupe Rubbish Disposal Facility,SAN JOSE,CA,95120,15999 Guadalupe Mines Road,SANTA CLARA COUNTY,562212,"C,HH",Waste,63721.45,180.2,63541.25,39.14,-121.64
1002431,110000484039,HANSON PERMANENTE CEMENT,CUPERTINO,CA,95014,24001 STEVENS CREEK BLVD.,SANTA CLARA COUNTY,327310,"C,H",Minerals,19.7,19.7,,37.21,-121.90
1002821,110000525021,HIGH SIERRA LIMITED,BAKERSFIELD,CA,93308,10600 OIL FIELD ROAD,KERN COUNTY,221112,C,Power Plants,10944.36,10933.4,5,37.32,-122.09
1001735,110000495802,HILMAR CHEESE COMPANY,HILMAR,CA,95324,9001 N. LANDER AVE.,MERCED COUNTY,311513,C,Other,74619.842,74526.5,40,35.49,-119.04
1005864,110000479090,HOLLY SUGAR CORP DBA SPRECKELS COMPANY,BRAWLEY,CA,92227,395 WEST KEYSTONE ROAD,IMPERIAL COUNTY,311313,"C,S",Minerals,84395.878,84275.8,49.75,37.42,-120.85
1000130,110040966078,Hanford Energy Park Peaker,HANFORD,CA,93230,10550 IDAHO AVE,KINGS COUNTY,221112,D,Power Plants,4689.784,4685.4,2,32.91,-115.57
1001455,110002422815,Harbor Generating Station,WILMINGTON,CA,90744,161 N ISLAND AVE,LOS ANGELES COUNTY,221112,D,Power Plants,57670.184,57611,27,36.27,-119.65
1006097,110065702528,Haynes Generating Station,LONG BEACH,CA,90803,6801 E 2ND ST,LOS ANGELES COUNTY,221112,"C,D",Power Plants,1053474.768,1052383.7,497.75,33.77,-118.27
1000283,110015375556,Henrietta Peaker Plant,LEMOORE,CA,93245,16027 25TH AVE,KINGS COUNTY,221112,D,Power Plants,13562.1,13548.4,6.25,33.76,-118.09
1000070,110070081752,High Desert Power Project,VICTORVILLE,CA,92394,19000 PERIMETER RD/STE 102,SAN BERNARDINO COUNTY,221112,"C,D",Power Plants,1537823.352,1536262.1,712.25,36.24,-119.90
1006216,110043972804,Highway 59 Landfill,Merced,CA,95348,7040 North Hwy 59,MERCED COUNTY,562212,HH,Waste,20565.5,,20565.5,34.60,-117.36
1000066,110002146080,"INGOMAR PACKING COMPANY, LLC",LOS BANOS,CA,93635,9950 SOUTH INGOMAR GRADE,MERCED COUNTY,311421,C,Other,82511.84,82426.9,38.75,37.39,-120.50
1004718,110061089165,"Imerys Filtration Minerals, Inc.",LOMPOC,CA,93436,2500 MIGUELITO ROAD,SANTA BARBARA COUNTY,212399,C,Other,37200.16,37161.8,17.5,37.07,-120.88
1000128,110070469332,Indigo Generation Facility,NORTH PALM SPRINGS,CA,92258,63500 19TH AVE,RIVERSIDE COUNTY,221112,D,Power Plants,18839.78,18820.6,8.75,34.65,-120.46
1009951,110000479429,Infineon Technologies Americas Corp,Temecula,CA,92590,41915 Business Park Dr,RIVERSIDE COUNTY,334413,"C,I",Other,20503.76818,4100,2,33.91,-116.55
1011082,110069631161,Ivanpah Solar Electric Generating Facility,Nipton,CA,92364,100302 Yates Well Road,SAN BERNARDINO COUNTY,221112,"C,D",Power Plants,74613.772,74537.6,34.75,33.50,-117.16
1003636,110000481979,J R SIMPLOT COMPANY,HELM,CA,93627,12688 S. COLORADO AVE.,FRESNO COUNTY,325311,"C,U,V",Chemicals,17844.058,16972.8,8.25,35.56,-115.60
1004956,110043785491,J.G. Boswell Tomato Company Kern LLC,BUTTONWILLOW,CA,93206,36889 HWY 58,KERN COUNTY,311421,C,Other,37170.66,37132.3,17.5,36.55,-120.11
1004832,110039204884,J.G. Boswell Tomato Company Kings LLC,CORCORAN,CA,93212,27905 DAIRY AVE,KINGS COUNTY,311421,C,Other,28833.492,28803.9,13.5,35.40,-119.41
1007128,110012694307,JOHNSON CANYON SANITARY LANDFILL,GONZALES,CA,93926,31400 JOHNSON CANYON ROAD,MONTEREY COUNTY,562212,HH,Waste,82292.5,,82292.5,36.07,-119.57
1004753,110001199792,KELCO,SAN DIEGO,CA,92113,2025 HARBOR DR E,SAN DIEGO COUNTY,311999,C,Other,104923.804,104815.3,49.5,36.52,-121.43
1004011,110001163053,KELLER CANYON LANDFILL,PITTSBURG,CA,94565,901 BAILEY ROAD,CONTRA COSTA COUNTY,562212,HH,Waste,125026,,125026,32.70,-117.15
1002543,110000525824,KERN FRONT LIMITED,BAKERSFIELD,CA,93308,12241 OILFIELD ROAD,KERN COUNTY,221112,C,Power Plants,8676.968,8668.2,4,38.01,-121.94
1004267,110000481611,KERN OIL & REFINING CO.,BAKERSFIELD,CA,93307,7724 E PANAMA LN,KERN COUNTY,324110,"C,MM-REF,Y","Petroleum Product Suppliers,Refineries",138543.21,137780.7,391.5,35.50,-119.04
1004037,110065766424,KIEFER LANDFILL,SLOUGHHOUSE,CA,95683,12701 KIEFER BLVD,SACRAMENTO COUNTY,562212,"C,HH",Waste,154436.942,,154286.75,35.30,-118.92
1004001,110006825908,Kern River Cogeneration Facility,BAKERSFIELD,CA,93308,1546 SW China Grade Loop,KERN COUNTY,221112,"C,DD","Other,Power Plants",135270.292,135131.1,63.5,38.52,-121.20
1011716,110014018785,Kings Waste and Recycling Authority,Hanford,CA,93230,7803 Hanford-Armona Road,KINGS COUNTY,562212,HH,Waste,3036,,3036,35.45,-118.99
1007817,110071159471,Kirby Canyon Recycling & Disposal Facility,Morgan Hill,CA,95037,910 Coyote Creek Golf Drive,SANTA CLARA COUNTY,562212,HH,Waste,89819.25,,89819.25,36.31,-119.60
1002591,110013955586,L A CO CENTRAL HEATING PLANT,LOS ANGELES,CA,90012,301 N. BROADWAY,LOS ANGELES COUNTY,221330,C,Power Plants,28656.84,28626.7,13.75,37.22,-121.58
1002134,110032643842,LAMB CANYON SANITARY LANDFILL,BEAUMONT,CA,92223,16411 LAMB CANYON RD,RIVERSIDE COUNTY,562212,HH,Waste,126010,,126010,34.06,-118.24
1007841,110002646977,LANCASTER LANDFILL,LANCASTER,CA,93535,600 E AVENUE F,LOS ANGELES COUNTY,562212,"C,HH",Waste,21722.8,15.3,21707.5,33.88,-116.99
1002874,110000495713,LAND O\LAKES INCORPORATED,TULARE,CA,93274,400 SOUTH M STREET,TULARE COUNTY,311514,C,Other,62102.816,62038.7,29.25,34.75,-118.12
1002224,110017972942,LAS PULGAS LANDFILL,CAMP PENDLETON (MIL RES),CA,92055,1 MI N CAMP PULGAS OFF BASILONE RD,SAN DIEGO COUNTY,928110,HH,Waste,24226.75,,24226.75,36.20,-119.34
1004612,110070385909,LEHIGH CEMENT WEST LLC,REDDING,CA,96003,15390 WONDERLAND BOULEVARD,SHASTA COUNTY,327310,"C,H",Minerals,336590.284,335335.9,469.75,33.02,-116.84
1002566,110000481915,"LEHIGH CEMENT WEST, LLC.",TEHACHAPI,CA,93561,13573 TEHACHAPI BLVD.,KERN COUNTY,327310,"C,H",Minerals,691618.826,687995.7,1392,40.74,-122.32
1002601,110002673900,LHOIST NORTH AMERICA -  NATIVIDAD PLANT,SALINAS,CA,93902,11771 OLD STAGE ROAD,MONTEREY COUNTY,327410,"C,S",Minerals,63037.628,63017.9,9,35.12,-118.37
1006732,110065364135,LINDE ONTARIO CA,ONTARIO,CA,91761,5705 EAST AIRPORT DRIVE,SAN BERNARDINO COUNTY,325120,"C,P",Chemicals,69656.8,69656.8,,36.75,-121.61
1006860,110040997393,LIVE OAK LIMITED,BAKERSFIELD,CA,93308,7001 GRANITE ROAD,KERN COUNTY,221112,D,Power Plants,16728.588,16711.6,7.75,34.06,-117.53
1000072,110000609306,LOCKHEED MARTIN MISSILES & SPACE,SUNNYVALE,CA,94089,1111 LOCKHEED MARTIN WAY,SANTA CLARA COUNTY,336414,C,Other,22123.116,22100.1,10.5,35.61,-118.94
1010767,110000528643,LODI ENERGY CENTER,LODI,CA,95242,12745 N. THORNTON ROAD,SAN JOAQUIN COUNTY,221112,D,Power Plants,653967.98,653304.9,302.5,37.42,-122.04
1006107,110013961089,LOPEZ CANYON LANDFILL,LAKE VIEW TERRACE,CA,91342,11950 LOPEZ CANYON RD,LOS ANGELES COUNTY,562212,HH,Waste,120759.75,,120759.75,38.09,-121.38
1002286,110001187144,LUNDAY-THAGARD COMPANY,SOUTH GATE,CA,90280,9301 SOUTH GARFIELD AVENUE,LOS ANGELES COUNTY,324110,"C,MM-REF,Y","Petroleum Product Suppliers,Refineries",37650.92,36843.2,766,34.29,-118.40
1006175,110021007426,LUZ SOLAR PARTNERS VIII & IX LTD.,HINKLEY,CA,92347,43880 HARPER LAKE ROAD,SAN BERNARDINO COUNTY,221114,C,Power Plants,583.848,583.3,0.25,33.95,-118.17
1001339,110002932328,La Paloma Generating Plant,MCKITTRICK,CA,93251,1760 WEST SKYLINE ROAD,KERN COUNTY,221112,"C,D",Power Plants,534601.32,534058.8,247.5,35.03,-117.35
1000064,110000516834,LONE STAR GAS LIQUIDS,SHAFTER,CA,93263,19430 BEECH AVENUE,KERN COUNTY,211130,"C,NN-FRAC,W-PROC","Natural Gas and Natural Gas Liquids Suppliers,Petroleum and Natural Gas Systems",35780.62,35587.4,77,35.30,-119.59
1007424,110071159849,Landers Sanitary Landfill,Landers,CA,92285,"59200 Winters Road, 1/2 mile east of Avalon Road",SAN BERNARDINO COUNTY,562212,"C,HH",Waste,45197.5,6,45191.5,35.45,-119.26
1000147,110065165662,Larkspur Energy Faciity,SAN DIEGO,CA,92154,9355 OTAY MESA ROAD,SAN DIEGO COUNTY,221112,D,Power Plants,16390.94,16374.5,7.5,34.15,-116.44
1006594,110012534784,Leprino Foods - Lemoore West,Lemore,CA,93245,351 North Belle Haven Drive,KINGS COUNTY,311513,C,Other,49978.112,49926.6,23.5,32.57,-116.94
1000903,110001157417,Liberty Packing,Los Banos,CA,93635,12045 S Ingomar Grade Road,MERCED COUNTY,311421,C,Other,117205.608,117084.5,55.25,36.30,-119.82
1005446,110009555542,MIDSTREAM ENERGY PARTNERS NORTH COLES LEVEE GAS PLANT,TUPMAN,CA,93276,9224 TUPMAN ROAD,KERN COUNTY,211130,"C,NN-FRAC,W-PROC","Natural Gas and Natural Gas Liquids Suppliers,Petroleum and Natural Gas Systems",28876.672,28707.6,150,37.07,-120.87
1001886,110071159940,Loma Linda University,Loma Linda,CA,92354,11100 Anderson Street,SAN BERNARDINO COUNTY,611310,C,Other,61736.32,61673.3,28.75,35.28,-119.31
1000490,110035420112,Long Beach Generating Station,LONG BEACH,CA,90802,2665 SEASIDE BOULEVARD,LOS ANGELES COUNTY,221112,D,Power Plants,13954.448,13940.2,6.5,34.05,-117.25
1001984,110001200851,Los Angeles International Airport (LAX),Los Angeles,CA,90045,275 Center Way,LOS ANGELES COUNTY,488119,C,Other,29000.44,28970.3,13.75,33.76,-118.22
1006627,110071161537,Los Angeles Refinery (LAR),CARSON,CA,90810,2350 E. 223rd Street,LOS ANGELES COUNTY,324110,"C,P,PP,Y","Chemicals,Refineries,Suppliers of CO2",6038424.346,6011846.2,17011.75,33.94,-118.40
1000175,110013666425,Los Esteros Critical Energy Fac,SAN JOSE,CA,95134,800 THOMAS FOON CHEW WAY,SANTA CLARA COUNTY,221112,D,Power Plants,138455.188,138314.9,64,33.82,-118.23
1001366,110002929706,"Los Medanos Energy Center, LLC",PITTSBURG,CA,94565,750 EAST THIRD ST,CONTRA COSTA COUNTY,221112,"C,D",Power Plants,1398435.616,1397070,623,37.43,-121.93
1003980,110043796005,MARTINEZ COGEN LIMITED PARTNER,MARTINEZ,CA,94553,550 Solano Way,CONTRA COSTA COUNTY,221112,C,Power Plants,257400.68,257134.9,121.25,38.03,-121.87
1001804,110000483245,MARTINEZ REFINING COMPANY LLC,MARTINEZ,CA,94553,3485 PACHECO BLVD,CONTRA COSTA COUNTY,324110,"C,MM-REF,Y","Petroleum Product Suppliers,Refineries",2596720.662,2587583.4,4155,38.02,-122.07
1002541,110028037363,MCKITTRICK LIMITED,BAKERSFIELD,CA,93308,34759 LENCIONI AVE,KERN COUNTY,221112,D,Power Plants,9465.364,9455.5,4.5,38.02,-122.12
1005355,110017396414,MIDWAY-SUNSET COGENERATION CO.,FELLOWS,CA,93224,3466 CROCKER SPRGS RD,KERN COUNTY,221112,C,Power Plants,25511.104,25484.8,12,35.45,-119.09
1006293,110043813530,MILLIKEN SANITARY LANDFILL,ONTARIO,CA,91761,2050 SOUTH MILLIKEN AVENUE,SAN BERNARDINO COUNTY,562212,HH,Waste,23295.75,,23295.75,35.23,-119.63
1000904,110005996636,MORNING STAR PACKING CO (Williams),WILLIAMS,CA,95987,2211 OLD HWY 99,COLUSA COUNTY,311421,C,Other,128913.664,128780.5,60.75,34.04,-117.56
1000457,110000525030,Magnolia,BURBANK,CA,91502,164 WEST MAGNOLIA BOULEVARD,LOS ANGELES COUNTY,221112,"C,D",Power Plants,430634.004,430196.7,199.5,39.13,-122.13
1000458,110065719958,"Malaga Power, LLC",FRESNO,CA,93725,2611 E NORTH AVE,FRESNO COUNTY,926130,D,Power Plants,13220.952,13207.8,6,34.18,-118.32
1007318,110028012219,Malburg Generating Station,VERNON,CA,90058,4963 South Soto ST,LOS ANGELES COUNTY,221112,D,Power Plants,265936.664,265666.5,123.25,36.69,-119.74
1000051,110070059908,"Mariposa Energy, LLC",Byron,CA,94514,4887 Bruns Road,ALAMEDA COUNTY,221112,D,Power Plants,50609.012,50557.5,23.5,34.00,-118.22
1011303,110043331864,Marsh Landing Generating Station,Antioch,CA,94509,3201-C Wilbur Avenue,CONTRA COSTA COUNTY,221112,"C,D",Power Plants,158607.612,158446.5,73.5,37.80,-121.60
1007390,110070560801,Martinez Renewable Fuel Facility,MARTINEZ,CA,94553,150 SOLANO WAY,CONTRA COSTA COUNTY,324110,"C,P,PP,Y","Chemicals,Refineries,Suppliers of CO2",18730.924,17551.2,1153.5,38.01,-121.76
1000806,110023012648,Metcalf Energy Center,Coyote,CA,95013,1 BLANCHARD RD,SANTA CLARA COUNTY,221112,D,Power Plants,937325.344,936378.4,432,38.03,-122.07
1013980,110042155306,Metropolitan State Hospital,Norwalk,CA,90650,11401 Bloomfield Ave,LOS ANGELES COUNTY,622210,C,Other,4284.084,4279.7,2,37.22,-121.74
1003918,110028037461,Mid-Valley Sanitary Landfill,Rialto,CA,92377,2390 North Alder Avenue,SAN BERNARDINO COUNTY,562212,HH,Waste,106841,,106841,33.92,-118.06
1000545,110040575981,"Midway Peaking, LLC",FIREBAUGH,CA,93622,43627 WEST PANOCHE ROAD,FRESNO COUNTY,221112,D,Power Plants,14889.844,14874.5,7,34.14,-117.42
1000447,110000609994,Miramar Energy Facility,SAN DIEGO,CA,92121,6897 CONSOLIDATED WAY,SAN DIEGO COUNTY,221112,D,Power Plants,11278.808,11267.3,5.25,36.65,-120.58
1005662,110070081921,Mitsubishi Cement Corp Cushenbury Cement Plant,Lucerne Valley,CA,92356,5808 State Highway 18,SAN BERNARDINO COUNTY,327310,"C,H",Minerals,1126409.484,1122857,1218.25,32.88,-117.17
1004550,110070087686,Monterey Regional Waste Management District,Marina,CA,93933,14201 Del Monte Blvd,MONTEREY COUNTY,562212,"C,HH",Waste,265776.266,0.1,265711.5,34.44,-116.89
1001440,110071160064,Moss Landing,MOSS LANDING,CA,95039,7301 State Highway 1,MONTEREY COUNTY,221112,D,Power Plants,2000308.476,1998178.4,971.75,36.70,-121.79
1001451,110024530364,Mountainview Generating Station,REDLANDS,CA,92374,2492 WEST SAN BERNARDINO AVE,SAN BERNARDINO COUNTY,221112,"C,D",Power Plants,824124.196,823287.4,381.75,36.80,-121.78
1006642,110071162504,NATIONAL CEMENT CO OF CALIFORNIA INC,Lebec,CA,93243,,KERN COUNTY,327310,"C,H",Minerals,862052.158,858373.5,1385.25,34.08,-117.24
1004052,110006529514,NEAL ROAD RECYCLING AND WASTE FACILITY,PARADISE,CA,95969,1023 NEAL ROAD,BUTTE COUNTY,562212,HH,Waste,19086.5,,19086.5,34.82,-118.75
1006179,110006533117,NEWBY ISLAND LANDFILL,MILPITAS,CA,95035,1601 DIXON LANDING ROAD,SANTA CLARA COUNTY,562212,HH,Waste,153206.75,,153206.75,39.68,-121.73
1007558,110009550066,NORTH MIRAMAR SANITARY LANDFILL,SAN DIEGO,CA,92111,5180 CONVOY STREET,SAN DIEGO COUNTY,562212,HH,Waste,3419.75,,3419.75,37.46,-121.94
1007749,110000528643,NPCA COMBUSTION TURBINE PROJECT #2,LODI,CA,95242,12745 N THORNTON RD,SAN JOAQUIN COUNTY,221112,D,Power Plants,13399.4,13385.7,6.25,32.84,-117.15
1005938,110018885759,"New-Indy Ontario, LLC",ONTARIO,CA,91761,5100 JURUPA ST,SAN BERNARDINO COUNTY,322130,C,Pulp and Paper,216173.336,215950.3,101.75,38.09,-121.39
1006048,110070336950,New-Indy Oxnard LLC,OXNARD,CA,93033,5936 PERKINS ROAD,VENTURA COUNTY,322130,C,Pulp and Paper,116365.912,116245.9,54.75,34.05,-117.54
1010139,110063180828,Newport Fab LLC (dba TowerJazz),Newport Beach,CA,92660,4321 Jamboree Road,ORANGE COUNTY,334413,"C,I",Other,97337.01182,12375.7,5.75,34.14,-119.18
1000541,110040573732,Niland Gas Turbine Plant,NILAND,CA,92257,402 EAST BEAL ROAD,IMPERIAL COUNTY,221112,D,Power Plants,47482.224,47434,22,33.66,-117.86
1014201,110000781805,Northrop Grumman Marine Systems,Sunnyvale,CA,94088,"401 East Hendy Avenue, MS 16-1",SANTA CLARA COUNTY,333611,C,Other,28477.792,28448.2,13.5,33.24,-115.50
1002320,110013978384,OLINDA ALPHA LANDFILL,BREA,CA,92823,1942 VALENCIA AVE,ORANGE COUNTY,562212,HH,Waste,440492.25,,440492.25,37.38,-122.02
1001971,110000477396,OLS ENERGY CHINO,CHINO,CA,91708,5601 EUCALYPTUS AVE.,SAN BERNARDINO COUNTY,221112,C,Power Plants,10513.512,10503.1,4.75,33.94,-117.84
1008030,110000832243,OTAY LANDFILL,CHULA VISTA,CA,91911,1700 MAXWELL ROAD,SAN DIEGO COUNTY,562212,HH,Waste,121002,,121002,33.99,-117.68
1002007,110000485421,OWENS-BROCKWAY GLASS CONTAINER INC.,TRACY,CA,95376,14700 W SCHULTE RD.,SAN JOAQUIN COUNTY,327213,"C,N",Minerals,88630,88561.5,31.25,32.61,-117.01
1007823,110002631073,OWENS-BROCKWAY GLASS CONTAINER INC. PLANT #23,VERNON,CA,90058,2901 FRUITLAND AVE.,LOS ANGELES COUNTY,327213,"C,N",Minerals,62255.524,62207.3,22,37.72,-121.49
1000891,110055506714,Olam West Coast Inc,Firebaugh,CA,93622,47461 W. Nees Ave,FRESNO COUNTY,311423,C,Other,30190.036,30158.8,14.25,34.00,-118.22
1005517,110000784116,Olam West Coast Inc,GILROY,CA,95020,1350 PACHECO PASS HWY,SANTA CLARA COUNTY,311423,C,Other,54730.944,54674.5,25.75,36.85,-120.64
1010345,110065967136,Olam West Coast Inc,Lemoore,CA,93245,1175 S. 19th Ave,KINGS COUNTY,311422,C,Other,514.748,514.2,0.25,37.00,-121.54
1000548,110043815538,Orange Grove Project,Pala,CA,92059,35435 Pala Del Norte Rd.,SAN DIEGO COUNTY,221112,D,Power Plants,8787.016,8777.7,4.25,36.28,-119.80
1001449,110019004780,"Ormond Beach Power, LLC",OXNARD,CA,93033,6635 S EDISON DR,VENTURA COUNTY,221112,"C,D",Power Plants,280322.56,280037.6,130,33.36,-117.11
1000796,110040565689,"Otay Mesa Energy Center, LLC",SAN DIEGO,CA,92154,606 De La Fuente Court,SAN DIEGO COUNTY,221112,D,Power Plants,829483.576,828641.3,384.25,34.13,-119.17
1007112,110005972965,Ox Mountain Sanitary Landfill,HALF MOON BAY,CA,94019,12310 SAN MATEO ROAD,SAN MATEO COUNTY,562212,HH,Waste,148918.5,,148918.5,32.57,-116.92
1005092,110060867888,Oxnard Landfills,Oxnard,CA,93036,4105 W. Gonzales Rd.,VENTURA COUNTY,562212,HH,Waste,3965.25,,3965.25,37.50,-122.41
1013348,,PABCO Building Products,Newark,CA,94560,37581 Cherry Street,ALAMEDA COUNTY,327420,C,Minerals,39609.8,39568.7,18.75,34.22,-119.22
1006104,110041142493,PACIFIC COAST PRODUCERS,WOODLAND,CA,95776,1376 LEMEN AVENUE,YOLO COUNTY,311421,C,Other,36833.912,36796.1,17.25,37.53,-122.03
1005865,110007032521,PALO ALTO LANDFILL AND RECYCLING CENTER,PALO ALTO,CA,94303,2380 EMBARCADERO ROAD,SANTA CLARA COUNTY,562212,HH,Waste,1090.75,,1090.75,38.68,-121.76
1003361,110028035070,PALOS VERDES LANDFILL,ROLLING HILLS ESTATES,CA,90274,25680 HAWTHORNE BLVD,LOS ANGELES COUNTY,562212,HH,Waste,19513,,19513,37.45,-122.10
1007173,110038892115,PG&E COLUSA GENERATING STATION,Maxwell,CA,95955,4780 Dirks Rd,COLUSA COUNTY,221112,"C,D",Power Plants,864937.544,864059.1,400.75,33.79,-118.35
1007469,110032962293,PG&E GATEWAY GENERATING STATION,ANTIOCH,CA,94509,3225 WILBUR AVE,CONTRA COSTA COUNTY,221112,"C,D",Power Plants,1363628.348,1362244.1,631.5,39.36,-122.27
1007411,110000610278,PG&E HUMBOLDT BAY,EUREKA,CA,95503,1000 KING SALMON AVE,HUMBOLDT COUNTY,221112,C,Power Plants,257010.766,256742.4,121.75,38.02,-121.76
1006099,110000481755,PHILLIPS 66 SANTA MARIA REFINERY,ARROYO GRANDE,CA,93420,2555 WILLOW ROAD,SAN LUIS OBISPO COUNTY,324110,"C,MM-REF,Y","Petroleum Product Suppliers,Refineries",150634.676,149819.6,439,40.74,-124.21
1002597,110012587370,PITCHESS COGENERATION FACILITY,SAUGUS,CA,91350,29300 THE OLD ROAD,LOS ANGELES COUNTY,922140,C,Other,9907.712,9897.3,4.75,35.04,-120.59
1007345,110017973193,POTRERO HILLS LANDFILL,SUISUN CITY,CA,94585,3675 POTRERO HILLS LANE,SOLANO COUNTY,562212,HH,Waste,82891.5,,82891.5,34.45,-118.61
1002106,110012694352,PRIMA DESHECHA LANDFILL,SAN JUAN CAPISTRANO,CA,92675,32250 LAPATA AVE,ORANGE COUNTY,562212,HH,Waste,121884.5,,121884.5,38.23,-121.98
1002152,110000481274,PROCTER & GAMBLE PAPER PRODUCTS,OXNARD,CA,93030,800 N. RICE AVE.,VENTURA COUNTY,322121,C,Pulp and Paper,299987.02,299677.4,141.25,33.49,-117.63
1003199,110043783983,PUENTE HILLS LANDFILL AND ENERGY RECOVERY,WHITTIER,CA,90601,2800 S WORKMAN MILL ROAD,LOS ANGELES COUNTY,562212,"C,HH",Waste,67764.744,,67369,34.21,-119.14
1000410,110045402079,Palomar Energy Center,ESCONDIDO,CA,92029,2300 Harveson Place,SAN DIEGO COUNTY,221112,D,Power Plants,704747.788,704032.1,326.5,34.02,-118.03
1000546,110071161134,Panoche Energy Center,FIRBAUGH,CA,93662,43883 WEST PANOCHE ROAD,FRESNO COUNTY,221112,D,Power Plants,336712.604,336371.2,155.75,33.12,-117.12
1000133,110012236507,Pastoria Energy Facility,LEBEC,CA,93243,39789 EDMONSTON PUMPING PLANT,KERN COUNTY,221112,D,Power Plants,1775142.816,1773489.5,754.25,36.65,-120.58
1010424,110070054365,Pechanga Resort and Casino,Temecula,CA,92593,45000 Pechanga Parkway,RIVERSIDE COUNTY,721120,C,Other,4220.984,4216.6,2,34.96,-118.84
1000439,,PG&E BURNEY COMPRESSOR STATION,Burney,CA,96013,37667 East Highway 299,SHASTA COUNTY,221210,"C,W-NGTC",Petroleum and Natural Gas Systems,60826.332,57984.1,2809.75,33.45,-117.10
1006434,110002065078,PG&E DELEVAN COMPRESSOR STATION,Maxwell,CA,95955,5001 Delevan Road,COLUSA COUNTY,221210,"C,W-NGTC",Petroleum and Natural Gas Systems,35267.226,32694,2554.75,41.02,-121.69
1006265,110043974081,PG&E GERBER COMPRESSOR STATION,GERBER,CA,96035,22169 Chard Ave,TEHAMA COUNTY,221210,"C,W-NGTC",Petroleum and Natural Gas Systems,54075.056,51668.9,2377.25,39.36,-122.26
1004272,110001200995,PG&E HINKLEY COMPRESSOR STATION,HINKLEY,CA,92347,35863 FAIRVIEW RD,SAN BERNARDINO COUNTY,221210,"C,W-NGTC",Petroleum and Natural Gas Systems,63136.236,56289.6,6814.75,40.07,-122.21
1004068,110002426232,PG&E KETTLEMAN COMPRESSOR STATION,AVENAL,CA,93204,34453 PLYMOUTH AVENUE,KINGS COUNTY,221210,"C,W-NGTC",Petroleum and Natural Gas Systems,19850.084,17472,2368.25,34.90,-117.16
1007536,110071159793,PG&E TIONESTA COMPRESSOR STATION,Tionesta,CA,96134,State Road 97,MODOC COUNTY,221210,"C,W-NGTC",Petroleum and Natural Gas Systems,36353.568,35112.9,1221,36.07,-120.08
1004069,110070864020,PG&E TOPOCK COMPRESSOR STATION,NEEDLES,CA,92363,145453 National Trails Highway,SAN BERNARDINO COUNTY,221210,"C,W-NGTC",Petroleum and Natural Gas Systems,37276.176,32880.7,4377,41.50,-120.87
1007262,110070090716,"Pelican Renewables, LLC",STOCKTON,CA,95206,3028 NAVY DRIVE,SAN JOAQUIN COUNTY,325193,"C,PP","Other,Suppliers of CO2",0.2,0.2,,34.73,-114.60
1001964,110038102969,Phillips 66 Los Angeles Refinery - Carson Plant,CARSON,CA,90745,1520 EAST SEPULVEDA BOULEVARD,LOS ANGELES COUNTY,324110,"C,MM-REF,P,PP,Y","Chemicals,Petroleum Product Suppliers,Refineries,Suppliers of CO2",938378.42,933450.5,2681,37.94,-121.34
1006843,110000476235,Phillips 66 Los Angeles Refinery - Wilmington Plant,WILMINGTON,CA,90744,1660 WEST ANAHEIM STREET,LOS ANGELES COUNTY,324110,"C,P,PP,Y","Chemicals,Refineries,Suppliers of CO2",1580205.138,1574176.5,2763.75,33.80,-118.24
1012414,110045006943,Pio Pico Energy Center,San Diego,CA,92154,7363 Calzada De La Fuente,SAN DIEGO COUNTY,221112,D,Power Plants,39889.952,39849.4,18.5,33.77,-118.29
1004685,110043788602,"Pixley Cogen Partners, LLC",Pixley,CA,93256,11518 Road 120,TULARE COUNTY,221112,C,Power Plants,40786.464,40652.4,46.75,32.57,-116.92
1001129,110071161649,Procter & Gamble Power Plant,SACRAMENTO,CA,95826,5000 83rd St,SACRAMENTO COUNTY,221112,"C,D",Power Plants,327002.188,326670.1,151.5,36.00,-119.30
1007738,110070286303,QUALCOMM INC - MOREHOUSE DR,SAN DIEGO,CA,92121,5555 MOREHOUSE DR,SAN DIEGO COUNTY,541990,C,Other,22617.916,22594.9,10.5,38.53,-121.40
1011718,110070062346,QUALCOMM INC - PACIFIC CENTER,San Diego,CA,92121,5751 Pacific Center Boulevard,SAN DIEGO COUNTY,541990,C,Other,39715.748,39674.1,19,32.89,-117.20
1002231,110000609707,"Quemetco, Inc.",City of Industry,CA,91746,720 South Seventh Avenue,LOS ANGELES COUNTY,331492,"C,R",Metals,39745.492,39729.6,7.25,32.90,-117.20
1004745,110017973022,RECOLOGY OSTROM ROAD,WHEATLAND,CA,95692,5900 OSTROM ROAD,YUBA COUNTY,562212,HH,Waste,88636,,88636,34.03,-117.98
1007668,110010060842,REDWOOD LANDFILL,NOVATO,CA,94945,8950 REDWOOD HWY,MARIN COUNTY,562212,"C,HH",Waste,86373.942,102.3,86225.75,39.08,-121.40
1005042,110070111135,Recology Hay Road,VACAVILLE,CA,95687,6426 HAY ROAD,SOLANO COUNTY,562212,HH,Waste,54862.25,,54862.25,38.16,-122.57
1000161,110001187876,Redding Power Plant,REDDING,CA,96001,17120 CLEAR CREEK ROAD,SHASTA COUNTY,221112,"C,D",Power Plants,171016.816,170843.1,79.25,38.31,-121.84
1000438,110024436608,Ripon Generation Station,RIPON,CA,95366,1015 S STOCKTON BLVD,STANISLAUS COUNTY,221112,D,Power Plants,20430.224,20409.4,9.5,40.51,-122.43
1000471,110040565242,Riverside Energy Resource Center,RIVERSIDE,CA,92504,5901 PAYTON AVE,RIVERSIDE COUNTY,221112,D,Power Plants,31761.78,31728.9,15,37.73,-121.12
1000485,110070090551,Roseville Energy Park,ROSEVILLE,CA,95747,5120 PHILLIP RD,PLACER COUNTY,221112,"C,D",Power Plants,231877.692,231642.6,107.25,33.96,-117.45
1000501,110039570540,Russell City Energy Company LLC,Hayward,CA,94545,3862 Depot Road,ALAMEDA COUNTY,221112,D,Power Plants,139562.764,139415.9,67,38.79,-121.38
1006395,110000483487,SAN FRANCISCO REFINERY AT RODEO,RODEO,CA,94572,1380 SAN PABLO AVENUE,CONTRA COSTA COUNTY,324110,"C,MM-REF,P,Y","Chemicals,Petroleum Product Suppliers,Refineries",1273369.674,1267419.9,2466.75,37.63,-122.13
1002565,110000481684,SAN JOAQUIN REFINING CO INC,BAKERSFIELD,CA,93308,3500 SHELL STREET,KERN COUNTY,324110,"C,MM-REF,P,Y","Chemicals,Petroleum Product Suppliers,Refineries",93904.336,93376.6,473.5,38.04,-122.25
1006215,110070089964,SAN MARCOS LANDFILL,SAN MARCOS,CA,92069,1595 SAN ELIJO ROAD,SAN DIEGO COUNTY,562212,HH,Waste,3508.75,,3508.75,35.40,-119.05
1004692,110013974921,SAN TIMOTEO SOLID WASTE DISPOSAL SITE(REDLANDS),REDLANDS,CA,92373,"31 REFUSE ROAD, 2 MILES S OF B",SAN BERNARDINO COUNTY,562212,HH,Waste,20272,,20272,33.10,-117.18
1004882,110013168366,SANTA MARIA REGIONAL LANDFILL,SANTA MARIA,CA,93454,2065 EAST MAIN STREET,SANTA BARBARA COUNTY,562212,"C,HH",Waste,6943.15,6.9,6936.25,34.01,-117.22
1002230,110038364427,SAPUTO CHEESE USA INC,TULARE,CA,93274,800 EAST PAIGE AVENUE,TULARE COUNTY,311513,C,Other,65607.452,65539.5,31,34.95,-120.38
1005782,110012694851,SAVAGE CANYON LANDFILL,WHITTIER,CA,90602,13919 EAST PENN STREET,LOS ANGELES COUNTY,562212,HH,Waste,11103.5,,11103.5,36.18,-119.34
1004262,110001176575,SENSIENT NATURAL INGREDIENTS LLC,LIVINGSTON,CA,95334,9984 WEST WALNUT AVENUE,MERCED COUNTY,311423,C,Other,46846.262,46795.5,22.75,33.98,-118.02
1007816,110002797689,SIMI VALLEY LANDFILL & RECYCLING CENTER,SIMI VALLEY,CA,93065,2801 NORTH MADERA ROAD,VENTURA COUNTY,562212,"C,HH",Waste,207721.996,194.4,207527,37.39,-120.67
1002317,110000478974,SOLAR TURBINES INCORPORATED,SAN DIEGO,CA,92123,4200 RUFFIN ROAD,SAN DIEGO COUNTY,333611,C,Other,26575.632,26544.8,13.25,34.25,-118.82
1004123,110066385520,SONOMA COUNTY CENTRAL DISPOSAL SITE,PETALUMA,CA,94952,500 MECHAM ROAD,SONOMA COUNTY,562212,"C,HH",Waste,53546.226,,53490.5,32.82,-117.13
1003395,110000781716,SPADRA LANDFILL,WALNUT,CA,91789,4125 WEST VALLEY BOULEVARD,LOS ANGELES COUNTY,562212,HH,Waste,8233,,8233,38.30,-122.74
1012095,110002412620,SRI International Cogeneration Project,Menlo Park,CA,94025,"333 Ravenswood Avenue, Bldg U",SAN MATEO COUNTY,221112,C,Power Plants,23874.56,23849.9,11.25,34.04,-117.82
1007461,110001187885,STANISLAUS FOOD PRODUCTS COMPANY,MODESTO,CA,95354,1202 D STREET,STANISLAUS COUNTY,311421,C,Other,52151.004,52097.3,24.5,37.46,-122.18
1002384,110028014805,Santa Ynez Unit (SYU),GOLETA,CA,93117,12000 CALLE REAL,SANTA BARBARA COUNTY,211120,"C,NN-FRAC,W-PROC","Natural Gas and Natural Gas Liquids Suppliers,Petroleum and Natural Gas Systems",0,0,,37.64,-120.99
1004779,110001186859,Southern California Gas Blythe Facility,Blythe,CA,92225,13100 West 14th Avenue,RIVERSIDE COUNTY,486210,"C,W-NGTC",Petroleum and Natural Gas Systems,52165.544,41586.8,10555.5,34.46,-120.04
1010581,110065454984,Southern California Gas Co Wheeler Ridge station,Mettler,CA,93313,9530 Highway 166,KERN COUNTY,486210,"C,W-NGTC",Petroleum and Natural Gas Systems,27896.408,24337.7,3545,33.60,-114.64
1005063,110001185422,Southern California Gas Company - Honor Rancho,VALENCIA,CA,91355,25205 WEST RYE CANYON ROAD,LOS ANGELES COUNTY,486210,"C,W-UNSTG",Petroleum and Natural Gas Systems,24396.566,22478.8,1905.25,35.06,-119.02
1003679,110033204887,SUNSHINE CANYON LANDFILL,SYLMAR,CA,91342,14747 SAN FERNANDO ROAD,LOS ANGELES COUNTY,562212,HH,Waste,381572.25,,381572.25,34.44,-118.58
1003998,110006825908,SYCAMORE COGENERATION Facility,BAKERSFIELD,CA,93308,1546 SW China Grade Loop,KERN COUNTY,221112,"C,DD","Other,Power Plants",726443.132,725698.4,339.75,34.32,-118.50
1003680,110070092140,SYCAMORE LANDFILL,SANTEE,CA,92071,8514 MAST BLVD,SAN DIEGO COUNTY,562212,HH,Waste,107174.75,,107174.75,35.45,-118.99
1000507,110035420719,Salinas River Cogeneration Facility,SAN ARDO,CA,93450,"Star Route 42, Wunpost Road",MONTEREY COUNTY,221112,"D,DD","Other,Power Plants",206412.436,206203.1,95.5,32.86,-117.03
1012097,110000522275,San Jose/Santa Clara Regional Wastewater Facility,San Jose,CA,95134,700 Los Esteros Road,SANTA CLARA COUNTY,221320,C,Other,22558.51,22449.5,36,35.95,-120.87
1004438,110028036220,Santa Clara Cogen,Santa Clara,CA,95050,524 Robert Avenue,SANTA CLARA COUNTY,221112,C,Power Plants,36795.96,36757.6,17.5,37.43,-121.95
1002318,110071159535,Santiago Canyon Landfill,ORANGE,CA,92862,3099 SANTIAGO CYN RD,ORANGE COUNTY,562212,HH,Waste,36093.5,,36093.5,37.36,-121.94
1001456,110000914734,Scattergood Generating Station,PLAYA DEL REY,CA,90293,12700 VISTA DEL MAR,LOS ANGELES COUNTY,221112,D,Power Plants,771073.336,770274.9,364.25,33.78,-117.75
1011475,110000495562,Schlosser Forge Company,Rancho Cucamonga,CA,91730,11711 Arrow Route,SAN BERNARDINO COUNTY,332112,C,Other,17030.436,17012.9,8,33.92,-118.43
1003198,110043804942,Scholl Canyon Landfill,Los Angeles,CA,90041,7721 N. Figueroa Street,LOS ANGELES COUNTY,562212,HH,Waste,100031.5,,100031.5,34.10,-117.55
1011577,110027254986,"Seaboard Energy California, LLC",Madera,CA,93638,31470 Avenue 12,MADERA COUNTY,424710,C,Petroleum and Natural Gas Systems,0.8,0.8,,34.15,-118.18
1005308,110000481933,Searles Valley Minerals,Trona,CA,93562,13200 Main Street,SAN BERNARDINO COUNTY,212391,C,Other,1643227.144,1632172,4051.25,36.92,-119.98
1010962,110043534388,Sentinel Energy Center,N. Palm Springs,CA,92258,15775 Melissa Ln,RIVERSIDE COUNTY,221112,D,Power Plants,319547.764,319222.8,148.25,35.76,-117.38
1011384,110000474987,Shultz Steel Company,South Gate,CA,90280,5321 Firestone Blvd.,LOS ANGELES COUNTY,331221,C,Metals,17041.236,17023.7,8,33.93,-116.57
1013147,,Sierra Army Depot,Herlong,CA,96113,74 Currant St.,LASSEN COUNTY,928110,HH,Waste,173.5,,173.5,33.95,-118.17
1003340,110028037915,Southeast Resource Recovery Facility (SERRF),LONG BEACH,CA,90802,120 PIER S. AVE,LOS ANGELES COUNTY,562213,C,Waste,141838.848,134156,2996.5,40.15,-120.12
1013939,110070397447,"Stanton Energy Reliability Center, LLC",Stanton,CA,90680,10711 Dale Avenue,ORANGE COUNTY,221112,D,Power Plants,2604.64,2601.9,1.25,33.76,-118.24
1000102,110013729251,Sunrise Power Company,FELLOWS,CA,93224,12857 SUNRISE ROAD,KERN COUNTY,221112,D,Power Plants,1020349.668,1019313.4,472.75,33.81,-117.98
1002634,110034184488,TAJIGUAS LANDFILL,GAVIOTA,CA,93117,14470 CALLE REAL,SANTA BARBARA COUNTY,562212,HH,Waste,30743.25,,30743.25,35.21,-119.59
1005800,110000477788,TAMCO,RANCHO CUCAMONGA,CA,91739,12459-B Arrow Route,SAN BERNARDINO COUNTY,331110,C,Metals,102.9,102.9,,34.48,-120.13
1004403,110014327843,TEAPOT DOME LANDFILL,PORTERVILLE,CA,93257,21063 AVENUE 128,TULARE COUNTY,562212,HH,Waste,4745.75,,4745.75,34.10,-117.53
1005368,110065359098,TEHAMA COUNTY/RED BLUFF LANDFILL,RED BLUFF,CA,96080,19995 PLYMIRE ROAD,TEHAMA COUNTY,562212,HH,Waste,28806,,28806,36.02,-119.10
1000907,110001161242,THE MORNING STAR PACKING CO (Los Banos),LOS BANOS,CA,93635,13448 SOUTH VOLTA ROAD,MERCED COUNTY,311421,C,Other,47327.572,47278.8,22.25,40.20,-122.29
1004743,110012693932,TOLAND ROAD LANDFILL,SANTA PAULA,CA,93060,3500 NORTH TOLAND ROAD,VENTURA COUNTY,562212,HH,Waste,53926.5,,53926.5,37.09,-120.93
1007329,110069359063,TORRANCE REFINING COMPANY LLC,TORRANCE,CA,90504,3700 WEST 190TH STREET,LOS ANGELES COUNTY,324110,"C,MM-REF,P,PP,Y","Chemicals,Petroleum Product Suppliers,Refineries,Suppliers of CO2",2754771.912,2744889.4,5459,34.41,-119.00
1006089,110013959895,TOYON CANYON PARK RECLAMATION PROJECT,LOS ANGELES,CA,90027,5050 MOUNT HOLLYWOOD DRIVE,LOS ANGELES COUNTY,562212,HH,Waste,69847.25,,69847.25,33.85,-118.34
1007836,110002688093,TRI-CITIES RECYCLING,FREMONT,CA,94538,7010 AUTO MALL PARKWAY,ALAMEDA COUNTY,562212,HH,Waste,5798.75,,5798.75,34.14,-118.30
1002261,110017407153,TRICOR REFINING LLC,BAKERSFIELD,CA,93308,1134 Manor Street,KERN COUNTY,324110,"C,Y",Refineries,40250.172,39886.6,344.5,37.50,-121.99
1009928,110041999825,TSI SEMICONDUCTORS LLC,Roseville,CA,95747,7501 Foothills Blvd.,PLACER COUNTY,334413,"C,I",Other,14492.75659,4810.4,2.25,35.42,-119.01
1011389,110000482898,"Tesla, Inc.",Fremont,CA,94538,45500 Fremont Boulevard,ALAMEDA COUNTY,336111,C,Other,40381.348,40339.7,19,38.78,-121.31
1012094,110070069475,TomaTek / Neil Jones Food Companies,Firebaugh,CA,93622,2502 N Street,FRESNO COUNTY,311421,C,Other,27550.796,27522.3,13,37.50,-121.95
1007312,110018862337,Tracy Combined Cycle Power Plant,TRACY,CA,95377,14950 W SCHULTE ROAD,SAN JOAQUIN COUNTY,221112,"C,D",Power Plants,362670.656,362302.4,168,36.84,-120.45
1003490,110066643289,U.S. BORAX INC.,BORON,CA,93516,14486 BORAX ROAD,KERN COUNTY,212391,C,Other,323043.984,322710.8,152,37.71,-121.49
1013042,110046299224,UC Berkeley,Berkeley,CA,94720,317 University Hall,ALAMEDA COUNTY,611310,C,Other,118447.404,118325.2,55.75,35.03,-117.70
1002271,110012428266,UC DAVIS MEDICAL CENTER,SACRAMENTO,CA,95817,2315 STOCKTON BOULEVARD,SACRAMENTO COUNTY,622110,C,Other,58832.078,58771.5,27.5,37.87,-122.27
1002461,110000746658,ULTRAMAR INC WILMINGTON REFINERY,WILMINGTON,CA,90744,2402 EAST ANAHEIM STREET,LOS ANGELES COUNTY,324110,"C,MM-REF,Y","Petroleum Product Suppliers,Refineries",840503.732,835231.1,3288.25,38.55,-121.46
1004965,110000483619,UNITED STATES PIPE & FOUNDRY CO LLC,UNION CITY,CA,94587,1295 WHIPPLE ROAD,ALAMEDA COUNTY,331511,C,Metals,48901.16,48678.1,83,33.78,-118.24
1002726,110002646682,UNIVERSITY OF CALIFORNIA DAVIS,DAVIS,CA,95616,1 SHIELDS AVENUE,YOLO COUNTY,611310,C,Other,50945.85,50891.8,24.25,37.61,-122.04
1002612,110017417669,UNIVERSITY OF CALIFORNIA SAN DIEGO,LA JOLLA,CA,92093,9500 GILMAN DRIVE #0089,SAN DIEGO COUNTY,611310,C,Other,160812.244,160646.2,75.75,38.54,-121.75
1006873,110042033661,"UNIVERSITY OF CALIFORNIA, IRVINE",IRVINE,CA,92697,4600 HEALTH SCIENCES ROAD,ORANGE COUNTY,611310,C,Other,69037.74,68966.5,32.5,32.88,-117.24
1001998,110043805861,US GYPSUM - PLASTER CITY PLANT,EL CENTRO,CA,92243,3810 W EVAN HEWES HWY,IMPERIAL COUNTY,327420,C,Minerals,69297.14,69225.9,32.5,33.64,-117.85
1002237,110043972109,US Marine Corps MCAGCC Twentynine Palms Environmental Affairs,TWENTYNINE PALMS,CA,92278,BLDG. 1418 4th St,SAN BERNARDINO COUNTY,928110,C,Other,56543.488,56485.4,26.5,32.72,-115.11
1004478,110000483450,"USS-UPI, LLC",PITTSBURG,CA,94565,900 LOVERIDGE ROAD,CONTRA COSTA COUNTY,331221,C,Metals,37885.508,37846.6,17.75,34.23,-116.05
1002869,110071161086,"United Airlines, Inc.",SAN FRANCISCO,CA,94128,800 S. Airport Blvd - SFOMP/Bldg 49,SAN FRANCISCO COUNTY,488190,C,Other,26076.87,26044,13.5,38.03,-121.87
1012289,110009530392,University of California Santa Cruz,SANTA CRUZ,CA,95064,1156 High street,SANTA CRUZ COUNTY,611310,C,Other,28852.492,28822.9,13.5,37.62,-122.38
1005501,110001191068,"University of California, Los Angeles",LOS ANGELES,CA,90095,405 Hilgard Ave.,LOS ANGELES COUNTY,611310,C,Other,211595.204,211377.1,99.5,36.98,-122.05
1000557,110071160831,"University of California, San Francisco - Parnassus Campus",San Francisco,CA,94143,25 Medical Center Way,SAN FRANCISCO COUNTY,611310,C,Other,53983.748,53928.4,25.25,34.07,-118.44
1008504,110033145353,VALERO REFINING CO - CALI FORNIA BENICIA REFINERY,BENICIA,CA,94510,3400 E SECOND ST,SOLANO COUNTY,324110,"C,MM-REF,P,PP,Y","Chemicals,Petroleum Product Suppliers,Refineries,Suppliers of CO2",2757315.65,2745134.7,7256.5,37.76,-122.46
1007040,110009544671,VASCO ROAD LANDFILL,LIVERMORE,CA,94550,4001 N VASCO RD,ALAMEDA COUNTY,562212,HH,Waste,30595.5,,30595.5,38.07,-122.14
1005588,110000479312,VISTA METALS CORPORATION,FONTANA,CA,92335,13425 WHITTRAM AVE.,SAN BERNARDINO COUNTY,331314,C,Metals,30071.936,30040.7,14.25,37.75,-121.72
1010774,110000476048,Valero Wilmington Asphalt Plant,Wilmington,CA,90744,1651 Alameda Street,LOS ANGELES COUNTY,324110,"C,MM-REF,Y","Petroleum Product Suppliers,Refineries",14446.332,14255,173.75,34.09,-117.51
1001457,110012444417,Valley Generating Station,SUN VALLEY,CA,91352,11801 SHELDON ST,LOS ANGELES COUNTY,221112,"C,D",Power Plants,458046.068,457571.5,216.5,33.80,-118.24
1007607,110017973004,Victorville Sanitary Landfill,Victorville,CA,92392,18600 Stoddard Wells Road,SAN BERNARDINO COUNTY,562212,HH,Waste,45529.25,,45529.25,34.25,-118.39
1004548,110071159253,Visalia Landfill,Visalia,CA,93291,8614 Avenue 328,TULARE COUNTY,562212,HH,Waste,16209.5,,16209.5,34.59,-117.27
1003800,110021082736,WASTE MANAGEMENT INC Oyster Bay,SAN LEANDRO,CA,94577,2615 DAVIS STREET,ALAMEDA COUNTY,562212,"C,HH",Waste,2402.946,1141.6,1260.75,36.39,-119.39
1001819,110065210266,WEST CENTRAL LANDFILL,REDDING,CA,96001,14095 CLEAR CREEK RD,SHASTA COUNTY,562212,HH,Waste,65257.25,,65257.25,37.71,-122.19
1005061,110009550066,WEST MIRAMAR SANITARY LANDFILL,SAN DIEGO,CA,92111,5180 CONVOY STREET,SAN DIEGO COUNTY,562212,HH,Waste,152566,,152566,40.50,-122.45
1006501,110043971093,WESTERN REGIONAL SANITARY LANDFILL,LINCOLN,CA,95648,3195 ATHENS AVENUE,PLACER COUNTY,562212,HH,Waste,38200,,38200,32.84,-117.15
1003187,110017404637,"WM BOLTHOUSE FARMS, INC.",BAKERSFIELD,CA,93307,7200 EAST BRUNDAGE LANE,KERN COUNTY,311991,C,Other,35746.416,35709.7,16.75,38.84,-121.35
1004496,110009550663,WONDERFUL PISTACHIOS & ALMONDS,LOST HILLS,CA,93249,13646 NORTH HIGHWAY 33,KERN COUNTY,115114,C,Other,44112.284,44066.8,20.75,35.35,-118.93
1010417,110045006596,"Walnut Creek Energy, LLC.",City of Industry,CA,91745,911 Bixby Drive,LOS ANGELES COUNTY,221112,D,Power Plants,126333.98,126205.2,58.75,35.65,-119.89
1000464,110023013718,Walnut Energy Center,TURLOCK,CA,95380,600 S WASHINGTON ROAD,STANISLAUS COUNTY,221112,D,Power Plants,527392.996,526857.6,244.25,34.01,-117.94
1011526,110021301866,"Wild Goose Storage, LLC",Gridley,CA,95948,2780 West Liberty Rd.,BUTTE COUNTY,486210,"C,W-UNSTG",Petroleum and Natural Gas Systems,26188.31,23866.4,2308.5,37.49,-120.90
1011469,110063697370,Windset Farms,Santa Maria,CA,93458,1650 Black Road,SANTA BARBARA COUNTY,111419,C,Other,34094.372,34059.3,16,39.35,-121.82
1001107,110071162535,Woodland Generation Station,MODESTO,CA,95351,920 WOODLAND AVE,STANISLAUS COUNTY,221112,"C,D",Power Plants,173947.604,173770.6,80.75,34.93,-120.48
1004402,110013910562,Woodville Landfill,Tulare,CA,93274,19800 Road 152,TULARE COUNTY,562212,HH,Waste,11911.75,,11911.75,37.65,-121.02
1011371,110002065498,Yolo County Central Landfill,Woodland,CA,95776,44090 County Road 28H,YOLO COUNTY,562212,HH,Waste,19333.5,,19333.5,36.15,-119.23
1004577,110002084002,Yuba City Cogeneration,Yuba City,CA,95993,873 N. Walton Ave,SUTTER COUNTY,221112,C,Power Plants,30007.788,29977.1,14,38.59,-121.68
1000123,110000524969,Yuba City Energy Center,YUBA CITY,CA,95993,875 NORTH WALTON AVE,SUTTER COUNTY,221112,D,Power Plants,53732.248,53676.9,25.25,39.14,-121.64
,,,,,,,,,,,,,,39.14,-121.64